{
"type": "FeatureCollection",
"name": "points",
"crs": { "type": "name", "properties": { "name": "urn:ogc:def:crs:OGC:1.3:CRS84" } },
"features": [
{ "type": "Feature", "properties": { "name": "02_03_konotop.jpg", "date": "2 березня", "country": "Україна", "place": "Конотоп", "Latitude": 51.2409432, "Longitude": 33.2050521 }, "geometry": { "type": "Point", "coordinates": [ 33.2050521, 51.2409432 ] } },
{ "type": "Feature", "properties": { "name": "02_03_melitopol4.jpg", "date": "2 березня", "country": "Україна", "place": "Мелітополь", "Latitude": 46.8550216, "Longitude": 35.3586996 }, "geometry": { "type": "Point", "coordinates": [ 35.3586996, 46.8550216 ] } },
{ "type": "Feature", "properties": { "name": "02_03_starobilsk2.jpg", "date": "2 березня", "country": "Україна", "place": "Старобільськ", "Latitude": 49.2736853, "Longitude": 38.9255482 }, "geometry": { "type": "Point", "coordinates": [ 38.9255482, 49.2736853 ] } },
{ "type": "Feature", "properties": { "name": "02_03_starobilsk3.jpg", "date": "2 березня", "country": "Україна", "place": "Старобільськ", "Latitude": 49.2736853, "Longitude": 38.9255482 }, "geometry": { "type": "Point", "coordinates": [ 38.9255482, 49.2736853 ] } },
{ "type": "Feature", "properties": { "name": "04_03_novopskov.jpg", "date": "4 березня", "country": "Україна", "place": "Новопсков", "Latitude": 49.5341366, "Longitude": 39.1204195 }, "geometry": { "type": "Point", "coordinates": [ 39.1204195, 49.5341366 ] } },
{ "type": "Feature", "properties": { "name": "04_03_novopskov2.jpg", "date": "4 березня", "country": "Україна", "place": "Новопсков", "Latitude": 49.5341366, "Longitude": 39.1204195 }, "geometry": { "type": "Point", "coordinates": [ 39.1204195, 49.5341366 ] } },
{ "type": "Feature", "properties": { "name": "05_03_berdjansk.jpg", "date": "5 березня", "country": "Україна", "place": "Бердянськ", "Latitude": 46.7737707, "Longitude": 36.8034779 }, "geometry": { "type": "Point", "coordinates": [ 36.8034779, 46.7737707 ] } },
{ "type": "Feature", "properties": { "name": "05_03_berdjansk2.jpg", "date": "5 березня", "country": "Україна", "place": "Бердянськ", "Latitude": 46.7737707, "Longitude": 36.8034779 }, "geometry": { "type": "Point", "coordinates": [ 36.8034779, 46.7737707 ] } },
{ "type": "Feature", "properties": { "name": "05_03_bilokurakine.jpg", "date": "5 березня", "country": "Україна", "place": "Білокуракине", "Latitude": 49.5296544, "Longitude": 38.7329968 }, "geometry": { "type": "Point", "coordinates": [ 38.7329968, 49.5296544 ] } },
{ "type": "Feature", "properties": { "name": "05_03_kherson1.jpg", "date": "5 березня", "country": "Україна", "place": "Херсон", "Latitude": 46.635417, "Longitude": 32.616867 }, "geometry": { "type": "Point", "coordinates": [ 32.616867, 46.635417 ] } },
{ "type": "Feature", "properties": { "name": "05_03_melitopol3.jpg", "date": "5 березня", "country": "Україна", "place": "Мелітополь", "Latitude": 46.8550216, "Longitude": 35.3586996 }, "geometry": { "type": "Point", "coordinates": [ 35.3586996, 46.8550216 ] } },
{ "type": "Feature", "properties": { "name": "06_03_chornogar.jpg", "date": "6 березня", "country": "Україна", "place": "Чонгар", "Latitude": 46.0294706, "Longitude": 34.5454805 }, "geometry": { "type": "Point", "coordinates": [ 34.5454805, 46.0294706 ] } },
{ "type": "Feature", "properties": { "name": "06_03_genichesk.jpg", "date": "6 березня", "country": "Україна", "place": "Генічеськ", "Latitude": 46.1784329, "Longitude": 34.8068184 }, "geometry": { "type": "Point", "coordinates": [ 34.8068184, 46.1784329 ] } },
{ "type": "Feature", "properties": { "name": "06_03_genichesk2.jpg", "date": "6 березня", "country": "Україна", "place": "Генічеськ", "Latitude": 46.1784329, "Longitude": 34.8068184 }, "geometry": { "type": "Point", "coordinates": [ 34.8068184, 46.1784329 ] } },
{ "type": "Feature", "properties": { "name": "06_03_kalanchak.jpg", "date": "6 березня", "country": "Україна", "place": "Каланчак", "Latitude": 46.2559467, "Longitude": 33.2989663 }, "geometry": { "type": "Point", "coordinates": [ 33.2989663, 46.2559467 ] } },
{ "type": "Feature", "properties": { "name": "06_03_kalanchak2.jpg", "date": "6 березня", "country": "Україна", "place": "Каланчак", "Latitude": 46.2559467, "Longitude": 33.2989663 }, "geometry": { "type": "Point", "coordinates": [ 33.2989663, 46.2559467 ] } },
{ "type": "Feature", "properties": { "name": "06_03_nova_kakhovka2.jpg", "date": "6 березня", "country": "Україна", "place": "Нова Каховка", "Latitude": 46.7515251, "Longitude": 33.3678207 }, "geometry": { "type": "Point", "coordinates": [ 33.3678207, 46.7515251 ] } },
{ "type": "Feature", "properties": { "name": "07_03_chaplynka.jpg", "date": "7 березня", "country": "Україна", "place": "Чаплинка", "Latitude": 46.3618147, "Longitude": 33.5327024 }, "geometry": { "type": "Point", "coordinates": [ 33.5327024, 46.3618147 ] } },
{ "type": "Feature", "properties": { "name": "07_03_kahovka.jpg", "date": "7 березня", "country": "Україна", "place": "Каховка", "Latitude": 46.8117208, "Longitude": 33.4901963 }, "geometry": { "type": "Point", "coordinates": [ 33.4901963, 46.8117208 ] } },
{ "type": "Feature", "properties": { "name": "07_03_starobilk.jpg", "date": "7 березня", "country": "Україна", "place": "Старобільськ", "Latitude": 49.2736853, "Longitude": 38.9255482 }, "geometry": { "type": "Point", "coordinates": [ 38.9255482, 49.2736853 ] } },
{ "type": "Feature", "properties": { "name": "07_03_tavrijsk.jpg", "date": "7 березня", "country": "Україна", "place": "Таврійськ", "Latitude": 46.7528018, "Longitude": 33.4216856 }, "geometry": { "type": "Point", "coordinates": [ 33.4216856, 46.7528018 ] } },
{ "type": "Feature", "properties": { "name": "08_03_berezhanka.jpg", "date": "8 березня", "country": "Україна", "place": "Бережанка", "Latitude": 50.6012071, "Longitude": 24.9755595 }, "geometry": { "type": "Point", "coordinates": [ 24.9755595, 50.6012071 ] } },
{ "type": "Feature", "properties": { "name": "08_03_berislav.jpg", "date": "8 березня", "country": "Україна", "place": "Берислав", "Latitude": 46.8433183, "Longitude": 33.4273644 }, "geometry": { "type": "Point", "coordinates": [ 33.4273644, 46.8433183 ] } },
{ "type": "Feature", "properties": { "name": "08_03_berislav2.jpg", "date": "8 березня", "country": "Україна", "place": "Берислав", "Latitude": 46.8433183, "Longitude": 33.4273644 }, "geometry": { "type": "Point", "coordinates": [ 33.4273644, 46.8433183 ] } },
{ "type": "Feature", "properties": { "name": "08_03_chervona_polyana.jpg", "date": "8 березня", "country": "Україна", "place": "Червона Поляна", "Latitude": 46.4657908, "Longitude": 33.5527763 }, "geometry": { "type": "Point", "coordinates": [ 33.5527763, 46.4657908 ] } },
{ "type": "Feature", "properties": { "name": "08_03_gola_prystan.jpg", "date": "8 березня", "country": "Україна", "place": "Гола Пристань", "Latitude": 46.5210948, "Longitude": 32.520127 }, "geometry": { "type": "Point", "coordinates": [ 32.520127, 46.5210948 ] } },
{ "type": "Feature", "properties": { "name": "08_03_gola_prystan2.jpg", "date": "8 березня", "country": "Україна", "place": "Гола Пристань", "Latitude": 46.5210948, "Longitude": 32.520127 }, "geometry": { "type": "Point", "coordinates": [ 32.520127, 46.5210948 ] } },
{ "type": "Feature", "properties": { "name": "08_03_gornostaivka.jpg", "date": "8 березня", "country": "Україна", "place": "Горностаївка", "Latitude": 47.0052788, "Longitude": 33.7289334 }, "geometry": { "type": "Point", "coordinates": [ 33.7289334, 47.0052788 ] } },
{ "type": "Feature", "properties": { "name": "08_03_nyzhni_syrogozy.jpg", "date": "8 березня", "country": "Україна", "place": "Нижні Сірогози", "Latitude": 46.8485653, "Longitude": 34.3804247 }, "geometry": { "type": "Point", "coordinates": [ 34.3804247, 46.8485653 ] } },
{ "type": "Feature", "properties": { "name": "08_03_oleshky.jpg", "date": "8 березня", "country": "Україна", "place": "Олешки", "Latitude": 46.6199321, "Longitude": 32.7072675 }, "geometry": { "type": "Point", "coordinates": [ 32.7072675, 46.6199321 ] } },
{ "type": "Feature", "properties": { "name": "08_03_oleshky2.jpg", "date": "8 березня", "country": "Україна", "place": "Олешки", "Latitude": 46.6199321, "Longitude": 32.7072675 }, "geometry": { "type": "Point", "coordinates": [ 32.7072675, 46.6199321 ] } },
{ "type": "Feature", "properties": { "name": "08_03_svatove.jpg", "date": "8 березня", "country": "Україна", "place": "Сватове", "Latitude": 49.4154809, "Longitude": 38.1568889 }, "geometry": { "type": "Point", "coordinates": [ 38.1568889, 49.4154809 ] } },
{ "type": "Feature", "properties": { "name": "08_03_syvaske.jpg", "date": "8 березня", "country": "Україна", "place": "Сиваське", "Latitude": 46.3843874, "Longitude": 34.5485661 }, "geometry": { "type": "Point", "coordinates": [ 34.5485661, 46.3843874 ] } },
{ "type": "Feature", "properties": { "name": "09_03_gorodnja5.jpg", "date": "9 березня", "country": "Україна", "place": "Городня", "Latitude": 51.8911132, "Longitude": 31.5958531 }, "geometry": { "type": "Point", "coordinates": [ 31.5958531, 51.8911132 ] } },
{ "type": "Feature", "properties": { "name": "09_03_skadovsk2.jpg", "date": "9 березня", "country": "Україна", "place": "Скадовськ", "Latitude": 46.1149247, "Longitude": 32.910222 }, "geometry": { "type": "Point", "coordinates": [ 32.910222, 46.1149247 ] } },
{ "type": "Feature", "properties": { "name": "10_04_kherson.jpg", "date": "10 квітня", "country": "Україна", "place": "Херсон", "Latitude": 46.635417, "Longitude": 32.616867 }, "geometry": { "type": "Point", "coordinates": [ 32.616867, 46.635417 ] } },
{ "type": "Feature", "properties": { "name": "10_04_kherson2.jpg", "date": "10 квітня", "country": "Україна", "place": "Херсон", "Latitude": 46.635417, "Longitude": 32.616867 }, "geometry": { "type": "Point", "coordinates": [ 32.616867, 46.635417 ] } },
{ "type": "Feature", "properties": { "name": "13_03_kerson2.jpg", "date": "13 березня", "country": "Україна", "place": "Херсон", "Latitude": 46.635417, "Longitude": 32.616867 }, "geometry": { "type": "Point", "coordinates": [ 32.616867, 46.635417 ] } },
{ "type": "Feature", "properties": { "name": "25_02_korukivka.jpg", "date": "25 лютого", "country": "Україна", "place": "Корюківка", "Latitude": 51.7754831, "Longitude": 32.2595792 }, "geometry": { "type": "Point", "coordinates": [ 32.2595792, 51.7754831 ] } },
{ "type": "Feature", "properties": { "name": "25_02_krukivka.jpg", "date": "25 лютого", "country": "Україна", "place": "Корюківка", "Latitude": 51.7754831, "Longitude": 32.2595792 }, "geometry": { "type": "Point", "coordinates": [ 32.2595792, 51.7754831 ] } },
{ "type": "Feature", "properties": { "name": "25_03_novotroizke.jpg", "date": "25 березня", "country": "Україна", "place": "Новотроїцьке", "Latitude": 46.3515111, "Longitude": 34.3355111 }, "geometry": { "type": "Point", "coordinates": [ 34.3355111, 46.3515111 ] } },
{ "type": "Feature", "properties": { "name": "25_03_novotroizke2.jpg", "date": "25 березня", "country": "Україна", "place": "Новотроїцьке", "Latitude": 46.3515111, "Longitude": 34.3355111 }, "geometry": { "type": "Point", "coordinates": [ 34.3355111, 46.3515111 ] } },
{ "type": "Feature", "properties": { "name": "26_02_bakhmach.jpg", "date": "26 лютого", "country": "Україна", "place": "Бахмач", "Latitude": 51.1828188, "Longitude": 32.8329917 }, "geometry": { "type": "Point", "coordinates": [ 32.8329917, 51.1828188 ] } },
{ "type": "Feature", "properties": { "name": "26_02_ichnja.jpg", "date": "26 лютого", "country": "Україна", "place": "Ічня", "Latitude": 50.8579559, "Longitude": 32.3974889 }, "geometry": { "type": "Point", "coordinates": [ 32.3974889, 50.8579559 ] } },
{ "type": "Feature", "properties": { "name": "26_02_melitopo3.jpg", "date": "26 лютого", "country": "Україна", "place": "Мелітополь", "Latitude": 46.8550216, "Longitude": 35.3586996 }, "geometry": { "type": "Point", "coordinates": [ 35.3586996, 46.8550216 ] } },
{ "type": "Feature", "properties": { "name": "26_02_melitopol.jpg", "date": "26 лютого", "country": "Україна", "place": "Мелітополь", "Latitude": 46.8550216, "Longitude": 35.3586996 }, "geometry": { "type": "Point", "coordinates": [ 35.3586996, 46.8550216 ] } },
{ "type": "Feature", "properties": { "name": "26_02_melitopol_2.jpg", "date": "26 лютого", "country": "Україна", "place": "Мелітополь", "Latitude": 46.8550216, "Longitude": 35.3586996 }, "geometry": { "type": "Point", "coordinates": [ 35.3586996, 46.8550216 ] } },
{ "type": "Feature", "properties": { "name": "26_03_prymorsk.jpg", "date": "26 березня", "country": "Україна", "place": "Приморськ", "Latitude": 46.7230781, "Longitude": 36.354122 }, "geometry": { "type": "Point", "coordinates": [ 36.354122, 46.7230781 ] } },
{ "type": "Feature", "properties": { "name": "26_03_slavutych.jpg", "date": "26 березня", "country": "Україна", "place": "Славутич", "Latitude": 51.5221889, "Longitude": 30.7457125 }, "geometry": { "type": "Point", "coordinates": [ 30.7457125, 51.5221889 ] } },
{ "type": "Feature", "properties": { "name": "26_03_slavutych2.jpg", "date": "26 березня", "country": "Україна", "place": "Славутич", "Latitude": 51.5221889, "Longitude": 30.7457125 }, "geometry": { "type": "Point", "coordinates": [ 30.7457125, 51.5221889 ] } },
{ "type": "Feature", "properties": { "name": "28_02_berdjansk3.jpg", "date": "28 лютого", "country": "Україна", "place": "Бережанка", "Latitude": 50.6012071, "Longitude": 24.9755595 }, "geometry": { "type": "Point", "coordinates": [ 24.9755595, 50.6012071 ] } },
{ "type": "Feature", "properties": { "name": "28_02_gorodnja.jpg", "date": "28 лютого", "country": "Україна", "place": "Городня", "Latitude": 51.8911132, "Longitude": 31.5958531 }, "geometry": { "type": "Point", "coordinates": [ 31.5958531, 51.8911132 ] } },
{ "type": "Feature", "properties": { "name": "28_02_gorodnja3.jpg", "date": "28 лютого", "country": "Україна", "place": "Городня", "Latitude": 51.8911132, "Longitude": 31.5958531 }, "geometry": { "type": "Point", "coordinates": [ 31.5958531, 51.8911132 ] } },
{ "type": "Feature", "properties": { "name": "28_02_gorodnya2.jpg", "date": "28 лютого", "country": "Україна", "place": "Городня", "Latitude": 51.8911132, "Longitude": 31.5958531 }, "geometry": { "type": "Point", "coordinates": [ 31.5958531, 51.8911132 ] } },
{ "type": "Feature", "properties": { "name": "energodar.jpg", "date": "2 березня", "country": "Україна", "place": "Енергодар", "Latitude": 47.5015067, "Longitude": 34.6341859 }, "geometry": { "type": "Point", "coordinates": [ 34.6341859, 47.5015067 ] } },
{ "type": "Feature", "properties": { "name": "04_03_novopskov3.jpg", "date": "4 березня", "country": "Україна", "place": "Новопсков", "Latitude": 49.5341366, "Longitude": 39.1204195 }, "geometry": { "type": "Point", "coordinates": [ 39.1204195, 49.5341366 ] } },
{ "type": "Feature", "properties": { "name": "08_03_oleshky3.jpg", "date": "8 березня", "country": "Україна", "place": "Олешки", "Latitude": 46.6199321, "Longitude": 32.7072675 }, "geometry": { "type": "Point", "coordinates": [ 32.7072675, 46.6199321 ] } }
]
}
